,City,Country,Latitude,Longitude,Date,Temp,Max Temp,Min Temp,Humidity,Cloudiness,Wind Speed
0,Airai,TL,-8.93,125.41,1586970338,61.65,61.65,61.65,69,100,2.89
1,Husavik,IS,66.04,-17.34,1586970802,37.4,37.4,37.4,74,75,6.93
2,Punta Arenas,CL,-53.15,-70.92,1586970338,52.57,55.4,51.01,71,99,6.93
3,Saskylakh,RU,71.92,114.08,1586970343,-5.26,-5.26,-5.26,91,94,6.2
4,Ushuaia,AR,-54.8,-68.3,1586970337,51.8,51.8,51.8,66,20,4.92
5,Biloela,AU,-24.42,150.5,1586970802,61.09,61.09,61.09,84,0,5.21
6,Cape Town,ZA,-33.93,18.42,1586970057,63.9,66.0,61.0,63,100,6.93
7,Kapaa,US,22.08,-159.32,1586970324,68.0,68.0,68.0,59,43,11.12
8,Albany,US,42.6,-73.97,1586970246,41.47,46.99,35.01,39,75,14.99
9,Tiksi,RU,71.69,128.87,1586970414,-1.64,-1.64,-1.64,91,100,9.22
10,Bluff,NZ,-46.6,168.33,1586970343,50.0,50.0,50.0,85,57,13.0
11,Russell,US,32.35,-85.2,1586970809,59.99,63.0,57.2,31,1,8.05
12,Abu Samrah,SY,35.3,37.18,1586970484,61.92,61.92,61.92,37,68,6.42
13,Rikitea,PF,-23.12,-134.97,1586970337,75.69,75.69,75.69,68,58,2.84
14,Ust'-Karsk,RU,52.7,118.81,1586970809,37.62,37.62,37.62,62,63,1.83
15,Cayenne,GF,4.93,-52.33,1586970459,87.8,87.8,87.8,58,75,10.29
16,Ponte de Sôr,PT,39.25,-8.01,1586970809,63.36,64.99,61.0,45,14,5.99
17,Aasiaat,GL,68.71,-52.87,1586970810,25.97,25.97,25.97,88,99,17.2
18,Maridi,SS,4.92,29.47,1586970810,76.06,76.06,76.06,49,58,1.86
19,East London,ZA,-33.02,27.91,1586970340,67.1,67.1,67.1,73,90,11.92
20,Omboué,GA,-1.57,9.26,1586970811,81.93,81.93,81.93,85,74,8.03
21,Mataura,NZ,-46.19,168.86,1586970336,50.0,50.0,50.0,85,62,13.0
22,Voh,NC,-20.97,164.7,1586970816,74.17,74.17,74.17,83,31,6.89
23,Isparta Province,TR,38.0,31.0,1586970818,53.6,53.6,53.6,62,75,17.22
24,Mazatlan,MX,25.2,-99.82,1586970818,58.44,58.44,58.44,61,100,6.2
25,Busselton,AU,-33.65,115.33,1586970362,52.9,55.0,51.01,59,34,5.41
26,Puerto Quijarro,BO,-17.78,-57.77,1586970664,81.82,81.82,81.82,35,0,6.76
27,Beringovskiy,RU,63.05,179.32,1586970824,20.39,20.39,20.39,97,98,9.98
28,Vaini,TO,-21.2,-175.2,1586970346,69.8,69.8,69.8,100,75,3.36
29,Xalapa,MX,19.53,-96.92,1586970825,65.48,65.48,65.48,61,100,2.19
30,Bredasdorp,ZA,-34.53,20.04,1586970335,62.78,64.4,61.0,72,99,8.05
31,Fort-Shevchenko,KZ,44.51,50.26,1586970826,52.21,52.21,52.21,70,5,26.71
32,Davila,PH,18.47,120.58,1586970826,75.88,75.88,75.88,87,71,16.28
33,Yellowknife,CA,62.46,-114.35,1586970365,19.9,21.99,19.0,79,75,11.41
34,Mahébourg,MU,-20.41,57.7,1586970362,78.08,78.8,77.0,78,40,16.11
35,Port Elizabeth,ZA,-33.92,25.57,1586970335,64.4,64.4,64.4,82,19,3.36
36,Taoudenni,ML,22.68,-3.98,1586970399,95.29,95.29,95.29,17,0,7.61
37,Mayo,US,38.89,-76.51,1586970355,49.12,52.0,46.0,42,20,10.29
38,Upernavik,GL,72.79,-56.15,1586970420,20.91,20.91,20.91,89,0,8.9
39,Nova Viçosa,BR,-17.89,-39.37,1586970827,81.91,81.91,81.91,74,72,7.94
40,Coyhaique,CL,-45.58,-72.07,1586970482,53.2,57.2,51.8,81,90,3.36
41,Palembang,ID,-2.92,104.75,1586970828,75.18,75.18,75.18,95,100,0.78
42,Longyearbyen,SJ,78.22,15.64,1586970366,35.6,35.6,35.6,69,75,26.4
43,Bengkulu,ID,-3.8,102.27,1586970092,78.42,78.42,78.42,82,100,4.45
44,Ushtobe,KZ,45.25,77.98,1586970828,49.26,49.26,49.26,52,98,5.12
45,Goba,ET,7.02,39.98,1586970828,54.21,54.21,54.21,39,100,4.12
46,Atuona,PF,-9.8,-139.03,1586970346,82.08,82.08,82.08,77,58,10.78
47,Belmonte,BR,-15.86,-38.88,1586970828,82.4,82.4,82.4,74,40,10.29
48,Ilhéus,BR,-14.79,-39.05,1586970829,86.0,86.0,86.0,74,20,6.93
49,Dwārka,IN,22.24,68.97,1586970829,80.65,80.65,80.65,76,12,14.67
50,Hilo,US,19.73,-155.09,1586970344,69.01,71.6,66.0,83,90,8.05
51,Port Alfred,ZA,-33.59,26.89,1586970352,61.0,61.0,61.0,93,52,7.07
52,Nikolskoye,RU,59.7,30.79,1586970347,37.35,39.2,35.01,64,40,8.95
53,Naze,JP,28.37,129.48,1586970474,64.4,64.4,64.4,59,86,10.29
54,Oeiras,BR,-7.03,-42.13,1586970830,78.1,78.1,78.1,79,100,5.12
55,Yar-Sale,RU,66.83,70.83,1586970347,15.44,15.44,15.44,93,29,9.91
56,Bambous Virieux,MU,-20.34,57.76,1586970373,77.94,78.8,77.0,78,40,16.11
57,Lüderitz,NA,-26.65,15.16,1586970375,64.4,64.4,64.4,72,0,19.46
58,Chokurdakh,RU,70.63,147.92,1586970451,-9.2,-9.2,-9.2,89,98,8.5
59,Ségou,ML,13.43,-6.22,1586970831,92.39,92.39,92.39,28,16,18.25
60,Tomatlán,MX,19.93,-105.25,1586970831,87.42,87.42,87.42,26,18,7.34
61,Pilar,BR,-9.6,-35.96,1586970831,89.6,89.6,89.6,59,20,11.41
62,Avarua,CK,-21.21,-159.78,1586970361,69.8,69.8,69.8,94,83,2.24
63,Monduli,TZ,-3.3,36.45,1586970831,77.0,77.0,77.0,69,75,4.7
64,Pevek,RU,69.7,170.31,1586970352,6.35,6.35,6.35,95,100,2.21
65,Laguna,US,38.42,-121.42,1586970354,65.84,70.0,60.8,51,5,3.36
66,Ol'ga,RU,43.74,135.29,1586970832,34.41,34.41,34.41,86,0,3.06
67,Chililabombwe,ZM,-12.36,27.82,1586970833,66.02,66.02,66.02,62,74,3.29
68,Samarai,PG,-10.62,150.67,1586970833,80.15,80.15,80.15,85,75,8.03
69,New Norfolk,AU,-42.78,147.06,1586970337,56.28,61.0,52.0,82,90,5.82
70,Souillac,MU,-20.52,57.52,1586970351,77.95,78.8,77.0,78,40,16.11
71,Sovetskiy,RU,61.36,63.58,1586970833,34.9,34.9,34.9,84,29,5.23
72,Mayumba,GA,-3.43,10.66,1586970834,82.17,82.17,82.17,87,96,8.23
73,Lebu,CL,-37.62,-73.65,1586970358,63.45,63.45,63.45,54,99,9.4
74,Norman Wells,CA,65.28,-126.83,1586970394,30.2,30.2,30.2,68,75,9.17
75,Coquimbo,CL,-29.95,-71.34,1586970367,62.6,62.6,62.6,72,75,4.7
76,Guadalajara,MX,20.67,-103.33,1586970549,78.84,82.0,73.4,20,5,4.7
77,Paamiut,GL,61.99,-49.67,1586970837,31.8,31.8,31.8,98,100,10.45
78,Finschhafen,PG,-6.6,147.87,1586970837,81.09,81.09,81.09,75,66,5.61
79,Lompoc,US,34.64,-120.46,1586970083,67.1,73.0,60.8,59,1,4.25
80,Hermanus,ZA,-34.42,19.23,1586970350,61.9,63.0,61.0,82,94,2.33
81,College,US,64.86,-147.8,1586970303,33.69,39.2,28.4,86,75,2.82
82,Mapimí,MX,25.82,-103.85,1586970837,67.15,68.0,66.2,55,20,7.2
83,Hobyo,SO,5.35,48.53,1586970372,84.78,84.78,84.78,71,8,11.54
84,Ponta do Sol,PT,32.67,-17.1,1586970364,58.82,66.2,55.99,63,40,18.34
85,Faanui,PF,-16.48,-151.75,1586970343,82.71,82.71,82.71,67,29,9.6
86,Castro,BR,-24.79,-50.01,1586970316,66.43,66.43,66.43,26,0,4.61
87,Cocobeach,GA,1.0,9.58,1586970838,84.2,84.2,84.2,89,40,9.17
88,Port Augusta,AU,-32.5,137.77,1586970362,70.79,72.0,68.0,68,92,13.87
89,Starosubkhangulovo,RU,53.1,57.44,1586970838,40.77,40.77,40.77,65,58,6.78
90,Lubango,AO,-14.92,13.49,1586970838,78.8,78.8,78.8,49,75,6.93
91,Severo-Kuril'sk,RU,50.68,156.12,1586970370,29.73,29.73,29.73,93,100,9.26
92,Nikolayevskaya,RU,47.61,41.5,1586970838,39.47,39.47,39.47,78,69,6.11
93,Praia da Vitória,PT,38.73,-27.07,1586970354,57.2,57.2,57.2,82,75,23.38
94,Khatanga,RU,71.97,102.5,1586970348,-9.11,-9.11,-9.11,89,0,4.54
95,Deep River,CA,46.1,-77.5,1586970839,35.55,36.0,35.01,34,75,8.05
96,Talaya,RU,61.38,152.75,1586970352,1.53,1.53,1.53,83,15,3.02
97,Daru,PG,-9.08,143.21,1586970839,79.77,79.77,79.77,85,100,9.19
98,Pisco,PE,-13.7,-76.22,1586970144,75.76,81.0,71.6,30,90,5.82
99,Lagoa,PT,39.05,-27.98,1586970471,56.66,56.66,56.66,67,21,23.62
100,Christchurch,NZ,-43.53,172.63,1586970636,41.83,46.99,37.4,93,22,1.12
101,Barrow,US,71.29,-156.79,1586970373,15.8,15.8,15.8,85,90,23.04
102,Bobo-Dioulasso,BF,11.18,-4.3,1586970839,96.8,96.8,96.8,34,57,9.17
103,Palmer,US,42.16,-72.33,1586970393,48.15,52.0,43.0,26,20,9.17
104,Kolyvan',RU,55.31,82.74,1586970840,41.0,41.0,41.0,81,21,8.95
105,Lavrentiya,RU,65.58,-171.0,1586970438,22.19,22.19,22.19,95,98,3.47
106,Emba,KZ,48.83,58.14,1586970840,48.18,48.18,48.18,47,11,14.7
107,Faya,SA,18.39,42.45,1586970488,63.5,64.4,62.6,82,40,6.93
108,Klaksvík,FO,62.23,-6.59,1586970482,42.8,42.8,42.8,75,80,24.16
109,Dudinka,RU,69.41,86.18,1586970433,3.2,3.2,3.2,84,40,17.9
110,Goderich,CA,43.75,-81.72,1586970840,33.22,37.99,28.99,63,92,9.57
111,Bosaso,SO,11.28,49.18,1586970840,84.56,84.56,84.56,71,17,3.27
112,Arraial do Cabo,BR,-22.97,-42.03,1586970348,84.2,84.2,84.2,58,20,9.17
113,George Town,MY,5.41,100.34,1586970193,79.34,82.4,77.0,100,40,3.36
114,Tuktoyaktuk,CA,69.45,-133.04,1586970357,26.6,26.6,26.6,79,75,11.41
115,Codrington,AU,-38.27,141.97,1586970483,60.04,60.04,60.04,91,80,13.06
116,Puerto Ayora,EC,-0.74,-90.35,1586970096,79.7,84.2,77.0,74,40,12.75
117,Jining,CN,35.41,116.58,1586970841,60.13,60.13,60.13,68,90,13.58
118,Jamestown,US,42.1,-79.24,1586970054,37.11,39.2,33.8,55,90,14.99
119,Apátfalva,HU,46.17,20.58,1586970841,51.89,52.0,51.8,37,56,4.7
120,Butaritari,KI,3.07,172.79,1586970375,82.53,82.53,82.53,82,100,17.18
121,Iqaluit,CA,63.75,-68.51,1586970341,23.0,23.0,23.0,62,90,9.17
122,Sortland,NO,68.69,15.42,1586970841,34.14,37.99,28.0,64,40,24.16
123,Esperance,AU,-33.87,121.9,1586970348,57.2,57.2,57.2,93,75,3.36
124,Saint-Augustin,CA,51.23,-58.65,1586970842,35.56,35.56,35.56,78,54,19.15
125,Kenitra,MA,34.26,-6.58,1586970842,67.51,68.0,66.99,60,97,13.87
126,Bakel,SN,14.9,-12.46,1586970842,98.47,98.47,98.47,23,53,4.47
127,Saint Paul Harbor,US,57.79,-152.41,1586970338,41.0,41.0,41.0,86,90,3.36
128,Buala,SB,-8.14,159.59,1586970352,81.91,81.91,81.91,75,100,2.13
129,La Sarre,CA,48.8,-79.2,1586970550,26.22,26.22,26.22,86,84,7.58
130,Cidreira,BR,-30.18,-50.21,1586970456,69.69,69.69,69.69,48,9,22.73
131,Nishihara,JP,26.18,127.76,1586970457,66.78,68.0,66.0,68,40,5.82
132,San Patricio,MX,19.22,-104.7,1586970510,78.8,78.8,78.8,83,5,6.93
133,Krasnosel'kup,RU,65.7,82.47,1586970475,18.79,18.79,18.79,95,0,10.51
134,Hambantota,LK,6.12,81.12,1586970485,82.56,82.56,82.56,76,64,5.88
135,Kārsiyāng,IN,26.88,88.28,1586970843,62.33,62.33,62.33,45,70,5.41
136,Diu,IN,20.71,70.98,1586970843,85.41,85.41,85.41,42,34,14.94
137,Porbandar,IN,21.64,69.61,1586970843,82.02,82.02,82.02,59,4,11.81
138,Örnsköldsvik,SE,63.29,18.72,1586970844,43.59,44.6,42.8,45,99,5.82
139,Oga,IT,46.46,10.35,1586970844,49.06,50.0,48.2,49,0,18.34
140,Natal,BR,-5.79,-35.21,1586970844,78.8,78.8,78.8,83,75,13.87
141,Shingū,JP,33.73,135.98,1586970446,53.47,53.47,53.47,50,87,7.0
142,El Batey,DO,19.77,-70.52,1586970845,85.91,90.0,84.2,66,20,11.41
143,Hobart,AU,-42.88,147.33,1586970341,56.89,61.0,52.0,82,90,5.82
144,Bathsheba,BB,13.22,-59.52,1586970420,84.2,84.2,84.2,62,40,18.34
145,Pitimbu,BR,-7.47,-34.81,1586970845,84.2,84.2,84.2,74,75,2.24
146,Tasiilaq,GL,65.61,-37.64,1586970360,30.2,30.2,30.2,74,75,4.7
147,Okitipupa,NG,6.5,4.78,1586970846,82.36,82.36,82.36,79,71,4.7
148,Zaterechnyy,RU,44.79,45.21,1586970846,58.39,58.39,58.39,55,85,15.86
149,Samarinda,ID,-0.5,117.15,1586970846,75.96,75.96,75.96,93,59,2.42
150,Nemuro,JP,43.32,145.57,1586970847,32.07,32.07,32.07,92,86,15.95
151,Qaanaaq,GL,77.48,-69.36,1586970337,12.2,12.2,12.2,90,86,2.57
152,Atasū,KZ,48.68,71.64,1586970847,41.92,41.92,41.92,54,0,7.56
153,Guinticgan,PH,11.56,123.12,1586970847,80.82,80.82,80.82,79,20,5.82
154,Hong Kong,HK,22.29,114.16,1586970126,68.68,72.0,63.0,60,94,4.7
155,Darhan,MN,49.49,105.92,1586970848,39.02,39.02,39.02,64,98,1.97
156,Bantul,ID,-7.89,110.33,1586970848,77.68,77.68,77.68,81,8,3.13
157,Sambava,MG,-14.27,50.17,1586970389,75.7,75.7,75.7,87,12,7.47
158,Mergen,CN,49.18,125.22,1586970848,41.45,41.45,41.45,55,0,2.77
159,Lázaro Cárdenas,MX,17.96,-102.2,1586970848,84.47,84.47,84.47,44,33,7.74
160,Tommot,RU,58.96,126.29,1586970849,34.23,34.23,34.23,84,87,2.42
161,Puerto Peñasco,MX,31.32,-113.53,1586970849,73.71,73.99,73.4,8,5,11.41
162,Sabancuy,MX,18.97,-91.18,1586970849,92.14,92.14,92.14,51,74,7.58
163,Bethel,US,41.37,-73.41,1586970439,48.52,52.0,44.01,39,20,5.82
164,Varna,BG,43.22,27.92,1586970642,45.52,46.4,44.01,52,12,6.93
165,Ulaangom,MN,49.98,92.07,1586970474,30.52,30.52,30.52,68,93,1.1
166,Saldanha,ZA,-33.01,17.94,1586970434,66.2,66.2,66.2,63,100,8.05
167,Pangody,RU,65.85,74.49,1586970850,16.09,16.09,16.09,91,11,10.65
168,Nouadhibou,MR,20.93,-17.03,1586970851,73.4,73.4,73.4,56,2,18.34
169,Mount Gambier,AU,-37.83,140.77,1586970355,57.2,57.2,57.2,100,75,6.93
170,Mahibadhoo,MV,3.78,72.97,1586970851,85.23,85.23,85.23,70,79,5.12
171,Provideniya,RU,64.38,-173.3,1586970345,23.94,23.94,23.94,94,71,5.12
172,Jurm,AF,36.86,70.83,1586970851,45.99,45.99,45.99,32,46,1.68
173,Iquitos,PE,-3.75,-73.25,1586970702,86.0,86.0,86.0,74,75,5.82
174,Prince Rupert,CA,54.32,-130.32,1586970852,42.8,42.8,42.8,100,90,5.82
175,Tsimmerbude,RU,54.67,20.13,1586970852,46.4,46.4,46.4,81,75,20.13
176,Irituia,BR,-1.77,-47.44,1586970852,84.02,84.02,84.02,69,96,1.74
177,Dingle,PH,11.0,122.67,1586970496,78.06,78.06,78.06,71,22,6.02
178,Pahrump,US,36.21,-115.98,1586970853,61.65,64.99,53.6,30,1,4.65
179,Wonthaggi,AU,-38.6,145.59,1586970853,61.34,64.0,59.0,77,100,1.99
180,Vardø,NO,70.37,31.11,1586970184,35.62,37.4,33.8,64,14,10.29
181,Marsaxlokk,MT,35.84,14.54,1586970854,60.03,60.8,59.0,77,40,13.87
182,Belaya Kholunitsa,RU,58.84,50.85,1586970855,45.82,45.82,45.82,75,95,12.01
183,Dongying,CN,37.46,118.49,1586970855,63.54,63.54,63.54,38,90,15.23
184,Aswān,EG,24.09,32.91,1586970481,86.0,86.0,86.0,15,0,5.82
185,Tuatapere,NZ,-46.13,167.68,1586970343,50.0,50.0,50.0,85,61,13.0
186,Shache,CN,38.42,77.24,1586970855,65.41,65.41,65.41,20,63,20.02
187,Monteagudo,BO,-19.82,-63.98,1586970855,72.84,72.84,72.84,30,65,3.38
188,Chum Phae,TH,16.54,102.1,1586970856,85.84,85.84,85.84,38,93,2.75
189,Ribeira Grande,PT,38.52,-28.7,1586970338,60.8,60.8,60.8,55,40,24.16
190,Ishigaki,JP,24.34,124.16,1586970413,70.68,70.68,70.68,57,26,4.9
191,Tautira,PF,-17.73,-149.15,1586970079,78.39,78.8,78.01,78,40,4.7
192,Porto-Novo,BJ,6.5,2.6,1586970664,86.0,86.0,86.0,74,20,13.87
193,Lincoln,US,40.8,-96.67,1586970632,45.14,46.99,42.8,31,40,12.75
194,Qandala,SO,11.47,49.87,1586970857,86.63,86.63,86.63,64,19,14.34
195,Dabat,ET,12.98,37.77,1586970857,65.7,65.7,65.7,17,38,4.09
196,Salinópolis,BR,-0.61,-47.36,1586970857,81.03,81.03,81.03,73,99,3.78
197,Kalikino,RU,52.95,39.83,1586970857,35.6,35.6,35.6,74,66,8.95
198,Saint-Joseph,RE,-21.37,55.62,1586970450,70.74,77.0,60.01,73,3,20.8
199,Mathathane,BW,-22.27,28.75,1586970858,80.11,80.11,80.11,30,67,5.82
200,Tuntum,BR,-5.26,-44.65,1586970858,81.55,81.55,81.55,77,100,3.83
201,Oktyabr'skiy,RU,54.48,53.47,1586970858,50.94,50.94,50.94,62,98,13.94
202,Glenwood Springs,US,39.55,-107.32,1586970591,36.79,41.0,32.0,25,40,17.22
203,Leh,IN,34.17,77.58,1586970859,38.05,38.05,38.05,17,63,6.69
204,Soe,ID,-9.86,124.28,1586970859,66.43,66.43,66.43,82,99,2.64
205,Kaitangata,NZ,-46.28,169.85,1586970348,50.85,51.01,50.0,64,36,17.0
206,Mana,GF,5.66,-53.78,1586970859,84.9,84.9,84.9,56,50,7.72
207,Vila Velha,BR,-20.33,-40.29,1586970234,84.72,84.99,84.2,66,29,10.29
208,Leningradskiy,RU,69.38,178.42,1586970365,14.0,14.0,14.0,95,100,4.38
209,Talara,PE,-4.58,-81.27,1586970860,62.6,62.6,62.6,100,72,9.17
210,Chernyshevskiy,RU,63.01,112.47,1586970860,20.86,20.86,20.86,91,96,8.08
211,Koltubanovskiy,RU,52.94,52.03,1586970860,55.27,55.27,55.27,57,100,16.28
212,Buraidah,SA,26.33,43.98,1586970762,68.0,68.0,68.0,56,0,18.34
213,Kavieng,PG,-2.57,150.8,1586970344,82.42,82.42,82.42,71,100,2.59
214,Ilo,PE,-17.64,-71.34,1586970860,73.71,73.71,73.71,66,25,7.67
215,Hithadhoo,MV,-0.6,73.08,1586970216,84.99,84.99,84.99,72,80,9.46
216,Cabo San Lucas,MX,22.89,-109.91,1586970364,72.45,78.01,64.0,46,5,4.7
217,Fuengirola,ES,36.54,-4.62,1586970861,62.83,64.4,60.01,88,75,9.17
218,Wencheng,CN,33.06,113.8,1586970861,62.08,62.08,62.08,73,53,7.7
219,Stornoway,GB,58.21,-6.39,1586970862,51.48,51.8,51.01,81,96,18.34
220,Chamba,IN,32.57,76.13,1586970862,63.37,63.37,63.37,26,20,10.09
221,Saint-Philippe,RE,-21.36,55.77,1586970345,70.36,77.0,60.01,73,6,20.8
222,Viranşehir,TR,37.24,39.76,1586970863,57.65,57.65,57.65,43,98,4.59
223,Shetpe,KZ,44.17,52.12,1586970863,54.63,54.63,54.63,36,32,15.35
224,Sur,OM,22.57,59.53,1586970509,88.18,88.18,88.18,37,100,7.18
225,Umm Kaddadah,SD,13.6,26.69,1586970864,77.95,77.95,77.95,11,0,12.15
226,Carupano,VE,10.67,-63.26,1586970864,85.08,85.08,85.08,61,21,9.78
227,Hildburghausen,DE,50.43,10.73,1586970864,59.0,61.0,55.99,44,15,5.82
228,Alofi,NU,-19.06,-169.92,1586970415,73.4,73.4,73.4,94,100,1.12
229,Poção de Pedras,BR,-4.67,-44.85,1586970865,84.11,84.11,84.11,73,96,1.36
230,Nago,JP,26.59,127.98,1586970865,65.93,68.0,60.8,68,90,3.36
231,Voi,KE,-3.39,38.56,1586970865,75.56,75.56,75.56,70,100,8.12
232,Ancud,CL,-41.87,-73.82,1586970459,51.8,51.8,51.8,100,90,18.34
233,Loa Janan,ID,-0.58,117.09,1586970866,75.88,75.88,75.88,93,54,2.15
234,Saint Anthony,US,45.02,-93.22,1586970866,28.54,30.99,26.01,42,75,5.82
235,Amahai,ID,-3.33,128.92,1586970372,78.73,78.73,78.73,81,83,5.32
236,Raja,SS,8.46,25.68,1586970399,83.79,83.79,83.79,11,33,4.21
237,Panzhihua,CN,26.59,101.71,1586970868,66.34,66.34,66.34,23,16,0.56
238,Poronaysk,RU,49.22,143.12,1586970869,26.76,26.76,26.76,94,32,4.09
239,Eppingen,DE,49.14,8.91,1586970872,63.59,66.99,55.99,22,0,3.36
240,Longyan,CN,25.11,117.02,1586970872,57.94,57.94,57.94,67,83,1.45
241,Vostok,RU,46.49,135.88,1586970873,26.67,26.67,26.67,78,0,1.72
242,Xiuyan,CN,40.29,123.27,1586970873,44.87,44.87,44.87,74,65,5.86
243,Eureka,US,40.8,-124.16,1586970784,51.8,54.0,51.01,81,40,10.04
244,Yemel'yanovo,RU,56.17,92.68,1586970874,42.8,42.8,42.8,70,62,2.24
245,Cherskiy,RU,68.75,161.3,1586970415,-1.5,-1.5,-1.5,91,83,3.13
246,Port Lincoln,AU,-34.73,135.87,1586970458,62.82,62.82,62.82,81,45,14.14
247,Alghero,IT,40.56,8.32,1586970874,71.6,71.6,71.6,21,1,13.87
248,Caravelas,BR,-17.71,-39.25,1586970874,82.31,82.31,82.31,73,77,7.38
249,Crib Point,AU,-38.35,145.2,1586970874,62.67,66.99,59.0,87,100,3.98
250,Carnarvon,AU,-24.87,113.63,1586970346,75.2,75.2,75.2,60,75,17.22
251,Mar del Plata,AR,-38.0,-57.56,1586970223,62.78,63.0,62.6,55,40,16.11
252,Moyale,KE,3.52,39.06,1586970875,71.17,71.17,71.17,62,100,3.15
253,Mossamedes,AO,-15.2,12.15,1586970875,75.76,75.76,75.76,72,94,9.01
254,Mortka,RU,59.33,66.02,1586970875,34.77,34.77,34.77,85,3,4.21
255,Barentu,ER,15.11,37.59,1586970875,75.7,75.7,75.7,20,68,11.59
256,Aguacatán,GT,15.34,-91.31,1586970875,71.01,71.01,71.01,56,48,1.99
257,Messina,IT,38.19,15.55,1586970839,60.57,64.4,57.99,68,75,5.82
258,Garden City,US,42.33,-83.33,1586970603,31.82,34.0,28.99,74,90,4.16
259,Brest,BY,52.1,23.7,1586970825,44.2,44.2,44.2,69,100,15.32
260,Ngaoundéré,CM,7.32,13.58,1586970876,80.38,80.38,80.38,37,82,2.77
261,Yenagoa,NG,4.92,6.26,1586970876,81.77,81.77,81.77,84,77,4.92
262,Salalah,OM,17.02,54.09,1586970876,84.2,84.2,84.2,70,40,6.93
263,Saint-Pierre,RE,-21.34,55.48,1586970440,71.65,77.0,60.01,73,0,20.8
264,Uarini,BR,-2.99,-65.11,1586970666,86.0,86.0,86.0,79,75,8.05
265,Nosy Varika,MG,-20.58,48.53,1586970876,75.87,75.87,75.87,83,37,2.84
266,Ust-Nera,RU,64.57,143.2,1586970876,15.35,15.35,15.35,87,98,2.55
267,Grindavik,IS,63.84,-22.43,1586970628,39.2,39.2,39.2,64,40,24.16
268,Vilhena,BR,-12.74,-60.15,1586970877,78.8,78.8,78.8,78,75,6.93
269,Winnemucca,US,40.97,-117.74,1586970877,53.28,53.6,52.0,34,1,11.41
270,Haapiti,PF,-17.57,-149.87,1586970877,79.43,80.01,78.8,78,40,4.7
271,Narsaq,GL,60.92,-46.05,1586970361,33.8,33.8,33.8,80,75,5.39
272,Monroe,US,43.15,-77.68,1586970877,39.69,42.01,37.0,48,75,20.8
273,Sidrolândia,BR,-20.93,-54.96,1586970878,69.8,69.8,69.8,37,0,10.29
274,Kahului,US,20.89,-156.47,1586970353,70.32,75.2,66.2,88,40,8.05
275,Polis,CY,35.04,32.43,1586970878,60.76,64.4,57.99,68,57,1.12
276,Port Blair,IN,11.67,92.75,1586970432,83.3,83.3,83.3,76,59,4.43
277,Kedrovyy,RU,56.17,91.82,1586970475,42.8,42.8,42.8,70,66,2.24
278,San Jose,US,37.34,-121.89,1586970714,64.89,71.01,57.99,44,1,3.36
279,Tateyama,JP,34.98,139.87,1586970878,57.09,57.2,57.0,54,100,6.93
280,Torbay,CA,47.67,-52.73,1586970394,47.14,51.01,42.01,39,75,12.75
281,Sobolevo,RU,54.43,31.9,1586970879,36.75,36.75,36.75,88,100,14.2
282,Constitución,CL,-35.33,-72.42,1586970228,62.4,62.4,62.4,52,100,5.79
283,Geraldton,AU,-28.77,114.6,1586970364,60.17,60.8,59.0,82,0,8.05
284,Marabu,MY,4.41,114.01,1586970492,77.0,77.0,77.0,94,75,5.03
285,Northam,GB,51.03,-4.22,1586970342,56.95,57.99,55.99,55,0,8.99
286,Richards Bay,ZA,-28.78,32.04,1586970372,70.93,70.93,70.93,74,65,5.01
287,Bhālki,IN,18.03,77.22,1586970879,86.09,86.09,86.09,17,44,5.88
288,Ilulissat,GL,69.22,-51.1,1586970341,26.6,26.6,26.6,42,75,8.05
289,Alfena,PT,41.24,-8.52,1586970879,58.59,64.0,53.01,77,40,14.99
290,Alta Floresta,BR,-9.88,-56.09,1586970692,95.0,95.0,95.0,56,75,2.24
291,Tura,IN,25.52,90.22,1586970880,68.77,68.77,68.77,72,91,4.76
292,Malé,MV,4.17,73.51,1586970675,84.2,84.2,84.2,83,75,8.08
293,Kigali,RW,-1.95,30.06,1586970880,73.4,73.4,73.4,73,40,3.36
294,Nampula,MZ,-15.12,39.27,1586970880,70.97,70.97,70.97,87,15,3.24
295,Nome,US,64.5,-165.41,1586970352,32.0,32.0,32.0,97,90,10.29
296,Stokmarknes,NO,68.56,14.91,1586970358,33.22,37.0,28.0,81,100,13.0
297,Waipawa,NZ,-41.41,175.52,1586970414,43.79,48.2,37.99,81,44,6.93
298,Vuktyl,RU,63.86,57.31,1586970881,32.76,32.76,32.76,91,99,9.8
299,Port Hedland,AU,-20.32,118.57,1586970371,80.6,80.6,80.6,88,72,5.82
300,Shahr-e Bābak,IR,30.12,55.12,1586970881,56.37,56.37,56.37,32,96,12.95
301,Dikson,RU,73.51,80.55,1586970339,5.47,5.47,5.47,81,26,6.26
302,Kamenka,RU,51.32,42.77,1586970377,37.99,39.0,37.0,81,48,3.0
303,Leshukonskoye,RU,64.9,45.76,1586970434,36.77,36.77,36.77,86,95,12.12
304,Yangi Marg`ilon,UZ,40.43,71.72,1586970397,50.0,50.0,50.0,81,90,0.58
305,Golden,US,39.76,-105.22,1586970861,48.0,53.01,32.0,26,40,23.04
306,Nālūt,LY,30.33,10.85,1586970882,80.78,80.78,80.78,28,95,4.29
307,Tessalit,ML,20.2,1.01,1586970882,89.26,89.26,89.26,16,100,13.31
308,Nyköping,SE,58.75,17.01,1586970882,58.44,59.0,57.2,44,28,16.11
309,Weyburn,CA,49.67,-103.85,1586970883,32.0,32.0,32.0,34,36,14.0
310,Teguise,ES,29.06,-13.56,1586970884,71.6,71.6,71.6,68,20,10.29
311,Arlit,NE,18.74,7.39,1586970501,95.29,95.29,95.29,7,75,8.1
312,Rumes,BE,50.54,3.32,1586970884,63.21,66.0,60.01,34,12,12.75
313,Blagoyevo,RU,63.37,47.92,1586970884,36.05,36.05,36.05,83,90,13.29
314,Namatanai,PG,-3.67,152.43,1586970471,80.22,80.22,80.22,77,97,1.88
315,Maltahöhe,NA,-24.83,16.98,1586970885,67.44,67.44,67.44,12,0,6.62
316,Oranjemund,NA,-28.55,16.43,1586970421,59.25,59.25,59.25,80,0,10.58
317,Kūhdasht,IR,33.53,47.61,1586970886,54.52,54.52,54.52,27,0,2.1
318,Kasempa,ZM,-13.46,25.83,1586970886,66.72,66.72,66.72,63,99,3.44
319,Bahía Blanca,AR,-38.72,-62.27,1586970739,69.37,69.37,69.37,31,28,1.28
320,Atbasar,KZ,51.8,68.33,1586970886,44.71,44.71,44.71,61,62,11.59
321,Havøysund,NO,71.0,24.66,1586970886,35.6,35.6,35.6,80,75,17.22
322,Atar,MR,20.52,-13.05,1586970887,92.48,92.48,92.48,10,56,13.76
323,Ranong,TH,9.97,98.63,1586970887,81.88,81.88,81.88,77,77,5.28
324,San Quintín,MX,30.48,-115.95,1586970358,69.44,69.44,69.44,48,0,6.46
325,Fairbanks,US,64.84,-147.72,1586970429,33.84,39.99,28.4,83,75,2.89
326,Concepción del Uruguay,AR,-32.48,-58.24,1586970888,70.0,70.0,70.0,40,0,5.99
327,Pacific Grove,US,36.62,-121.92,1586970888,62.29,70.0,57.2,55,1,4.7
328,Farafangana,MG,-22.82,47.83,1586970888,76.91,76.91,76.91,83,5,9.78
329,Brezniţa Ocol,RO,44.67,22.62,1586970889,45.27,45.27,45.27,54,66,7.96
330,Kruisfontein,ZA,-34.0,24.73,1586970369,59.36,59.36,59.36,85,19,0.96
331,Ust-Kuyga,RU,70.02,135.6,1586970889,-1.59,-1.59,-1.59,90,100,9.1
332,Mehamn,NO,71.04,27.85,1586970450,35.6,35.6,35.6,80,75,17.22
333,Karla,EE,59.37,24.93,1586970889,41.25,42.8,39.99,60,19,21.92
334,Isangel,VU,-19.55,169.27,1586970373,78.28,78.28,78.28,81,100,12.01
335,Padang,ID,-0.95,100.35,1586970096,79.07,79.07,79.07,77,100,4.59
336,Carutapera,BR,-1.2,-46.02,1586970889,82.38,82.38,82.38,73,99,2.95
337,Saint George,US,37.1,-113.58,1586970424,53.98,57.0,48.2,34,1,4.7
338,Cosalá,MX,24.41,-106.69,1586970891,77.0,77.0,77.0,60,69,4.0
339,Nybro,SE,56.74,15.91,1586970622,54.03,60.01,48.0,71,20,19.46
340,Mayya,RU,61.73,130.28,1586970893,19.4,19.4,19.4,52,39,8.95
341,Havre-St-Pierre,CA,50.23,-63.6,1586970893,39.2,39.2,39.2,44,1,18.34
342,Bandarbeyla,SO,9.49,50.81,1586970358,82.81,82.81,82.81,74,6,11.39
343,Salym,RU,60.06,71.48,1586970893,36.7,36.7,36.7,94,100,4.21
344,Pangai,TO,-19.8,-174.35,1586970893,79.11,79.11,79.11,83,100,15.05
345,Murray Bridge,AU,-35.12,139.27,1586970487,62.82,66.0,59.0,78,97,3.0
346,Jumla,NP,29.27,82.18,1586970894,48.94,48.94,48.94,33,88,2.28
347,Vao,NC,-22.67,167.48,1586970404,74.43,74.43,74.43,78,70,15.68
348,Hualmay,PE,-11.1,-77.61,1586970894,79.2,79.2,79.2,59,10,9.31
349,Mumford,GH,5.26,-0.76,1586970894,84.0,84.0,84.0,75,12,11.14
350,Aksarka,RU,66.56,67.8,1586970894,29.12,29.12,29.12,98,100,11.14
351,Eydhafushi,MV,5.1,73.07,1586970895,85.71,85.71,85.71,70,73,7.96
352,Angoram,PG,-4.06,144.07,1586970895,73.76,73.76,73.76,97,35,1.03
353,Mbour,SN,14.42,-16.96,1586970895,81.16,82.4,77.0,39,17,20.8
354,Kidal,ML,18.44,1.41,1586970895,93.2,93.2,93.2,9,83,1.95
355,Sola,VU,-13.88,167.55,1586970066,79.36,79.36,79.36,84,100,18.01
356,Filingué,NE,14.35,3.32,1586970896,91.22,91.22,91.22,10,11,3.49
357,Thompson,CA,55.74,-97.86,1586970353,17.6,17.6,17.6,57,40,9.17
358,La Ronge,CA,55.1,-105.28,1586970355,23.0,23.0,23.0,45,75,10.29
359,Port Hardy,CA,50.7,-127.42,1586970897,48.2,48.2,48.2,87,90,4.7
360,Qui Nhon,VN,13.77,109.23,1586970897,75.47,75.47,75.47,81,49,2.39
361,Jardim,BR,-21.48,-56.14,1586970647,74.86,74.86,74.86,35,0,6.93
362,São João da Barra,BR,-21.64,-41.05,1586970455,86.0,86.0,86.0,58,44,2.24
363,Khor,RU,47.89,134.95,1586970897,36.27,36.27,36.27,73,0,3.33
364,Yulara,AU,-25.24,130.99,1586970459,66.2,66.2,66.2,22,19,3.53
365,Jiuquan,CN,39.74,98.52,1586970898,51.94,51.94,51.94,26,56,8.21
366,Meridian,US,43.61,-116.39,1586970750,51.48,55.4,48.0,62,90,13.87
367,Corridonia,IT,43.25,13.51,1586970898,52.32,55.0,50.0,43,0,5.82
368,Petropavlovka,RU,50.61,105.32,1586970898,38.14,38.14,38.14,53,84,3.6
369,Puerto Madryn,AR,-42.77,-65.04,1586970423,79.16,79.16,79.16,19,64,20.36
370,Fojnica,BA,43.96,17.9,1586970898,50.0,50.0,50.0,39,29,6.93
371,Namuac,PH,18.61,121.17,1586970899,75.43,75.43,75.43,87,85,7.83
372,High Level,CA,58.52,-117.14,1586970477,32.0,32.0,32.0,74,90,9.17
373,Tamandaré,BR,-8.76,-35.1,1586970899,84.87,84.87,84.87,68,69,9.78
374,Forsytheganj,BY,52.63,29.73,1586970899,40.71,40.71,40.71,81,100,14.43
375,Lorengau,PG,-2.02,147.27,1586970424,81.77,81.77,81.77,75,99,2.21
376,Luziânia,BR,-16.25,-47.95,1586970900,71.6,71.6,71.6,94,75,9.17
377,Katsuura,JP,35.13,140.3,1586970478,57.09,57.2,57.0,54,100,6.93
378,Khandyga,RU,62.67,135.6,1586970900,17.83,17.83,17.83,91,100,5.37
379,Svrljig,RS,43.41,22.12,1586970900,50.0,50.0,50.0,37,34,11.41
380,Namwala,ZM,-15.75,26.44,1586970900,72.95,72.95,72.95,47,49,1.81
381,Vanimo,PG,-2.67,141.3,1586970901,80.19,80.19,80.19,79,32,3.44
382,Nevel'sk,RU,46.67,141.86,1586970901,28.4,28.4,28.4,92,40,4.47
383,Benguela,AO,-12.58,13.41,1586970707,82.4,82.4,82.4,78,40,4.7
384,Hushitai,CN,41.93,123.51,1586970901,49.93,55.0,48.2,43,80,4.47
385,Gdov,RU,58.74,27.81,1586970902,36.46,36.46,36.46,90,87,8.05
386,Tual,ID,-5.67,132.75,1586970476,81.9,81.9,81.9,75,88,1.07
387,Racale,IT,39.96,18.09,1586970902,55.2,57.2,53.6,54,5,21.92
388,Vanavara,RU,60.34,102.28,1586970903,35.53,35.53,35.53,79,31,1.41
389,Antigonish,CA,45.62,-62.0,1586970903,38.14,39.99,37.0,87,100,1.01
390,Clyde River,CA,70.47,-68.59,1586970185,5.0,5.0,5.0,84,75,11.41
391,Lena,ES,43.1,-5.73,1586970903,57.16,68.0,46.0,72,100,9.82
392,Ust'-Kalmanka,RU,52.12,83.31,1586970904,41.81,41.81,41.81,66,20,9.17
393,Ishinomaki,JP,38.42,141.3,1586970904,43.43,43.43,43.43,77,16,11.3
394,Clifton,US,40.86,-74.16,1586970904,49.44,53.01,46.0,34,1,11.41
395,Marsh Harbour,BS,26.54,-77.06,1586970905,79.52,79.52,79.52,73,80,15.28
396,Caraquet,CA,47.79,-64.94,1586970906,41.43,42.8,39.99,33,90,10.29
397,Linfen,CN,36.09,111.52,1586970906,66.49,66.49,66.49,22,71,8.03
398,Senno,RU,59.53,33.92,1586970906,33.71,33.71,33.71,86,98,4.52
399,Bonthe,SL,7.53,-12.51,1586970907,84.2,84.2,84.2,74,100,10.42
400,Ulverstone,AU,-41.15,146.17,1586970907,58.37,59.0,57.99,82,100,11.99
401,Miraflores,MX,19.22,-98.81,1586970907,73.85,84.2,68.0,46,5,6.93
402,Korla,CN,41.76,86.15,1586970419,64.38,64.38,64.38,22,96,9.04
403,Yanam,IN,16.73,82.22,1586970908,81.37,81.37,81.37,76,15,6.87
404,Sungai Penuh,ID,-2.08,101.38,1586970493,66.18,66.18,66.18,73,96,1.99
405,Lichuan,CN,30.3,108.85,1586970909,55.74,55.74,55.74,61,25,2.8
406,Baijiantan,CN,45.63,85.18,1586970909,61.2,61.2,61.2,42,100,23.2
407,Bom Jesus,BR,-9.07,-44.36,1586970909,71.13,71.13,71.13,86,100,4.0
408,Ati,TD,13.22,18.34,1586970359,90.28,90.28,90.28,9,0,10.85
409,Kudahuvadhoo,MV,2.67,72.89,1586970909,85.64,85.64,85.64,64,84,2.66
410,Mbeya,TZ,-8.9,33.45,1586970910,62.2,62.2,62.2,58,56,5.5
411,Esim,GH,4.87,-2.24,1586970362,84.07,84.07,84.07,75,59,7.9
412,Khanbari,NP,27.37,87.2,1586970910,68.4,68.4,68.4,41,100,4.03
413,Shebalino,RU,51.29,85.68,1586970910,36.16,36.16,36.16,65,100,1.77
414,Boende,CD,-0.22,20.87,1586970910,81.14,81.14,81.14,63,72,2.62
415,Atarra,IN,25.28,80.57,1586970910,94.48,94.48,94.48,16,63,7.78
416,Kaabong,UG,3.48,34.15,1586970910,69.76,69.76,69.76,54,99,1.43
417,Laas,IT,46.62,10.7,1586970431,55.85,68.0,50.0,39,5,5.82
418,Wajima,JP,37.4,136.9,1586970911,48.2,48.2,48.2,84,80,18.34
419,Shelburne,CA,44.08,-80.2,1586970884,33.82,37.0,30.0,69,75,6.93
420,Mahon,ES,39.89,4.27,1586970911,62.6,62.6,62.6,77,20,19.46
421,Qaqortoq,GL,60.72,-46.03,1586970911,33.8,33.8,33.8,86,75,2.24
422,Nyagan,RU,62.14,65.39,1586970911,34.2,34.2,34.2,93,100,2.82
423,Tari,NG,12.41,4.49,1586970472,97.75,97.75,97.75,9,18,1.92
424,Big Rapids,US,43.7,-85.48,1586970794,33.04,36.0,30.99,60,40,5.82
425,Oxelösund,SE,58.67,17.1,1586970912,58.39,59.0,57.2,44,30,16.11
426,Jalu,LY,29.03,21.55,1586970371,87.51,87.51,87.51,13,58,11.77
427,Palimbang,PH,6.21,124.19,1586970912,80.4,80.4,80.4,76,36,2.24
428,Bol,TD,13.46,14.71,1586970912,87.64,87.64,87.64,17,0,7.74
429,Skagen,DK,57.72,10.58,1586970912,46.65,46.99,46.0,78,97,41.0
430,Asău,RO,46.43,26.4,1586970913,49.57,50.0,48.99,43,86,9.17
431,Krasnaya Gora,RU,53.0,31.6,1586970913,39.2,39.2,39.2,85,75,13.42
432,Bac Lieu,VN,9.29,105.72,1586970913,82.42,82.42,82.42,77,62,14.09
433,Cadereyta,MX,25.58,-99.98,1586970913,52.84,55.4,51.01,76,90,3.36
434,Waddān,LY,29.16,16.14,1586970913,89.65,89.65,89.65,16,100,11.83
435,Guangming,CN,45.33,122.78,1586970914,52.54,52.54,52.54,38,100,11.56
436,Lusambo,CD,-4.97,23.45,1586970915,80.56,80.56,80.56,57,44,1.7
437,Lipari,IT,38.47,14.95,1586970915,61.29,64.4,57.99,68,75,5.82
438,Warri,NG,5.52,5.75,1586970915,82.51,82.51,82.51,81,84,6.42
439,Hūn,LY,29.13,15.95,1586970915,90.37,90.37,90.37,16,100,11.61
440,Shenjiamen,CN,29.96,122.3,1586970916,59.02,59.02,59.02,78,4,12.15
441,Inhambane,MZ,-23.86,35.38,1586970917,80.6,80.6,80.6,88,40,11.41
442,Ketchikan,US,55.34,-131.65,1586970917,45.7,46.4,44.6,87,20,12.75
443,Gonder,ET,12.6,37.47,1586970917,70.12,70.12,70.12,17,42,5.32
444,Pozo Colorado,PY,-23.49,-58.8,1586970918,78.12,78.12,78.12,27,0,5.5
445,Bremerton,US,47.57,-122.63,1586970770,51.64,57.99,46.4,87,90,4.9
446,Gravelbourg,CA,49.88,-106.55,1586970919,32.4,32.4,32.4,61,74,12.71
447,Porto Santo,PT,33.07,-16.34,1586970919,60.62,64.4,59.0,82,75,18.34
448,Chui,UY,-33.7,-53.46,1586970366,64.08,64.08,64.08,82,99,25.95
449,Doha,QA,25.29,51.53,1586970256,73.22,73.99,71.6,83,75,13.87
450,Serebryanyy Bor,RU,56.8,124.8,1586970919,25.03,25.03,25.03,86,13,1.81
451,Omsukchan,RU,62.53,155.8,1586970919,2.26,2.26,2.26,85,61,1.66
452,Ust'-Koksa,RU,50.27,85.61,1586970920,40.96,40.96,40.96,54,95,2.84
453,Ucluelet,CA,48.93,-125.55,1586970823,52.29,57.99,48.2,93,90,2.64
454,Mersing,MY,2.43,103.84,1586970376,84.2,84.2,84.2,79,50,8.05
455,North Bend,US,43.41,-124.22,1586970920,50.79,52.0,50.0,87,90,3.36
456,Río Bueno,CL,-40.32,-72.97,1586970920,53.6,53.6,53.6,87,100,10.29
457,Merauke,ID,-8.47,140.33,1586970921,77.05,77.05,77.05,91,90,8.48
458,Warrnambool,AU,-38.38,142.48,1586970921,57.0,57.0,57.0,92,71,13.82
459,Puerto Palomas,MX,31.77,-107.62,1586970921,57.2,57.2,57.2,16,1,10.29
460,Muros,ES,42.78,-9.06,1586970921,55.94,57.99,53.6,87,40,9.17
461,Puerto Madero,MX,14.72,-92.42,1586970921,91.4,91.4,91.4,55,20,6.93
462,Kargasok,RU,59.06,80.86,1586970922,36.55,36.55,36.55,89,100,8.39
463,Sept-Îles,CA,50.2,-66.38,1586970922,36.36,37.0,35.6,64,75,17.22
464,Mildura,AU,-34.2,142.15,1586970922,71.83,73.4,70.0,38,100,8.05
465,Taltal,CL,-25.4,-70.48,1586970376,68.09,68.09,68.09,61,56,6.6
466,Wad Medani,SD,14.4,33.52,1586970770,83.23,83.23,83.23,11,40,12.37
467,Port Said,EG,31.26,32.28,1586970842,69.8,69.8,69.8,60,73,5.82
468,Kumul,CN,42.8,93.45,1586970410,66.29,66.29,66.29,22,99,9.51
469,Menongue,AO,-14.66,17.69,1586970471,68.88,68.88,68.88,48,83,3.0
470,Boa Vista,BR,2.82,-60.67,1586970284,91.4,91.4,91.4,38,40,12.75
471,San Policarpo,PH,12.18,125.51,1586970439,80.17,80.17,80.17,80,37,2.17
472,Takaungu,KE,-3.68,39.86,1586970923,83.21,84.2,82.4,83,40,8.05
473,Savelugu,GH,9.62,-0.83,1586970923,100.65,100.65,100.65,25,62,3.22
474,Oktyabr'skoye,RU,43.06,44.74,1586970923,55.2,55.4,55.0,50,84,8.95
475,Tuchola,PL,53.59,17.86,1586970923,50.74,54.0,46.99,50,95,16.11
476,Sturgeon Bay,US,44.83,-87.38,1586970923,30.72,35.01,28.4,50,1,11.41
477,Makkah al Mukarramah,SA,21.43,39.83,1586970841,69.3,69.3,69.3,52,0,7.27
478,Waingapu,ID,-9.66,120.26,1586970924,79.39,79.39,79.39,82,100,8.63
479,Talnakh,RU,69.49,88.4,1586970398,3.2,3.2,3.2,84,40,17.9
480,Xiaoweizhai,CN,26.19,107.51,1586970924,62.01,62.01,62.01,67,70,7.85
481,Pamplona,ES,42.82,-1.64,1586970924,63.84,68.0,59.0,72,20,18.34
482,Sabha,LY,27.04,14.43,1586970452,91.8,91.8,91.8,10,100,8.57
483,Seaford,GB,50.77,0.1,1586970926,58.3,62.6,53.01,44,2,6.93
484,Itarema,BR,-2.92,-39.92,1586970398,83.41,83.41,83.41,76,62,3.11
485,Bereda,ES,43.27,-7.54,1586970926,54.84,64.0,48.99,87,100,5.82
486,Hervey Bay,AU,-25.3,152.85,1586970421,66.76,66.99,66.0,82,75,4.7
487,Darnah,LY,32.77,22.64,1586970926,63.93,63.93,63.93,72,86,19.1
488,Sirūr,IN,18.83,74.38,1586970926,84.94,84.94,84.94,35,51,9.31
489,Vila,PT,42.03,-8.16,1586970474,53.4,57.0,48.99,93,75,9.17
490,Marigot,MF,18.07,-63.08,1586970708,84.33,86.0,82.4,58,40,10.29
491,Dawson Creek,CA,55.77,-120.24,1586970928,36.88,37.4,35.6,59,20,8.05
492,Barra de Tecoanapa,MX,16.52,-98.75,1586970928,89.04,89.04,89.04,41,80,8.34
493,Severo-Yeniseyskiy,RU,60.37,93.04,1586970928,34.61,34.61,34.61,78,1,3.06
494,Evensk,RU,61.95,159.23,1586970486,11.77,11.77,11.77,86,88,7.2
495,Agirish,RU,61.92,63.02,1586970929,34.45,34.45,34.45,83,70,4.61
496,Nanortalik,GL,60.14,-45.24,1586970342,36.45,36.45,36.45,93,100,14.41
497,Comodoro Rivadavia,AR,-45.87,-67.5,1586970770,66.2,66.2,66.2,48,75,4.7
498,Lucapa,AO,-8.42,20.74,1586970929,72.97,72.97,72.97,63,100,0.96
499,Lhokseumawe,ID,5.18,97.15,1586970893,80.13,80.13,80.13,81,38,4.74
500,Cervo,ES,43.67,-7.41,1586970930,64.0,64.0,64.0,40,100,4.63
501,Maputo,MZ,-25.97,32.59,1586970930,71.11,71.11,71.11,88,47,4.43
502,Key West,US,24.56,-81.78,1586970875,85.59,87.8,84.2,83,40,12.75
503,Boden,SE,65.83,21.69,1586970930,33.8,33.8,33.8,86,89,5.82
504,Banda Aceh,ID,5.56,95.32,1586970930,80.67,80.67,80.67,79,67,1.32
505,Lawrence,US,38.97,-95.24,1586970736,45.84,48.99,42.8,42,1,4.7
506,Nazilli,TR,37.92,28.32,1586970931,60.51,60.51,60.51,55,27,3.56
507,Maningrida,AU,-12.07,134.27,1586970931,76.14,76.14,76.14,89,98,8.16
508,Florida,US,28.75,-82.5,1586970824,83.25,89.6,77.0,83,90,8.05
509,Saint-Raymond,CA,45.47,-73.61,1586970796,39.85,42.01,37.0,41,40,21.92
510,Rāzole,IN,16.48,81.83,1586970931,80.08,80.08,80.08,77,10,5.73
511,Ulladulla,AU,-35.35,150.47,1586970393,67.08,71.6,61.0,43,99,5.82
512,Bahía Solano,CO,6.23,-77.4,1586970932,82.81,82.81,82.81,70,70,6.02
513,Abhā,SA,18.22,42.51,1586970351,63.45,64.4,62.6,82,40,6.93
514,Birao,CF,10.28,22.79,1586970933,86.49,86.49,86.49,11,17,6.64
515,Khromtau,KZ,50.25,58.43,1586970933,45.54,45.54,45.54,50,30,13.65
516,Bilma,NE,18.69,12.92,1586970486,90.61,90.61,90.61,10,3,9.48
517,Kaitong,CN,44.81,123.15,1586970933,53.37,53.37,53.37,37,100,12.37
518,Vysokogornyy,RU,50.12,139.15,1586970934,19.72,19.72,19.72,91,5,1.92
519,Bambanglipuro,ID,-7.95,110.28,1586970934,78.22,78.22,78.22,82,8,3.87
520,Steamboat Springs,US,40.48,-106.83,1586970934,29.68,37.4,24.01,100,90,14.47
521,Griffith,US,41.53,-87.42,1586970809,32.72,35.6,30.99,63,90,8.05
522,Bilibino,RU,68.05,166.44,1586970936,2.86,2.86,2.86,84,92,2.86
523,Reyes,BO,-14.32,-67.38,1586970936,76.82,76.82,76.82,55,99,3.09
524,West Bay,KY,19.37,-81.42,1586970936,85.51,87.8,82.99,70,20,10.29
525,Show Low,US,34.25,-110.03,1586970749,50.11,55.0,46.99,19,1,3.89
526,Marawi,PH,8.0,124.29,1586970936,69.42,69.42,69.42,71,57,2.95
527,Balikpapan,ID,-1.27,116.83,1586970936,78.8,78.8,78.8,94,20,5.91
528,Kisiwani,TZ,-4.13,37.95,1586970937,72.59,72.59,72.59,74,94,4.29
529,Cockburn Town,TC,21.46,-71.14,1586970937,79.02,79.02,79.02,80,1,14.92
530,Kuala Pilah,MY,2.74,102.25,1586970937,83.05,84.2,82.0,78,20,3.36
531,Strezhevoy,RU,60.73,77.59,1586970937,41.0,41.0,41.0,65,100,2.24
532,Pangnirtung,CA,66.15,-65.71,1586970410,23.0,23.0,23.0,53,90,4.7
533,Seoul,KR,37.57,126.98,1586970299,46.33,50.0,42.8,57,1,1.77
534,Sisophon,KH,13.59,102.97,1586970939,81.37,81.37,81.37,74,36,2.82
535,Ambon City,ID,-3.7,128.18,1586970428,80.96,80.96,80.96,78,88,6.78
536,Bozhou,CN,33.88,115.77,1586970945,60.48,60.48,60.48,68,68,10.11
537,Marabba,SD,12.35,32.18,1586970946,84.58,84.58,84.58,11,65,10.2
538,Nichinan,JP,31.6,131.37,1586970947,57.97,57.97,57.97,71,100,4.68
539,Henties Bay,NA,-22.12,14.28,1586970497,59.0,59.0,59.0,90,1,3.0
540,Tāybād,IR,34.74,60.78,1586970652,55.47,55.47,55.47,50,11,8.19
541,Puerto Rondón,CO,6.28,-71.1,1586970910,95.7,95.7,95.7,28,1,8.41
542,Bol'shoye Selo,RU,57.72,38.93,1586970947,35.55,35.55,35.55,79,95,4.76
543,Mandalgovi,MN,45.76,106.27,1586970947,32.32,32.32,32.32,51,11,19.42
544,Dukat,RU,62.55,155.55,1586970947,-0.67,-0.67,-0.67,84,50,1.77
545,Sawākin,SD,19.11,37.33,1586970458,75.09,75.09,75.09,61,0,9.4
546,Tieling,CN,42.29,123.84,1586970948,55.0,55.0,55.0,57,92,1.01
547,Khudumelapye,BW,-23.88,24.75,1586970948,68.31,68.31,68.31,15,0,7.85
548,Olinda,BR,-8.01,-34.86,1586970948,86.0,86.0,86.0,70,40,9.17
549,Karratha,AU,-20.74,116.85,1586970368,82.45,82.45,82.45,74,34,10.87
550,Callaway,US,30.15,-85.57,1586970948,64.87,66.99,62.6,55,75,14.99
551,Fortuna,US,40.6,-124.16,1586970363,51.17,54.0,48.2,93,90,5.82
552,Aykhal,RU,66.0,111.5,1586970949,10.4,10.4,10.4,60,27,6.71
553,Te Anau,NZ,-45.42,167.72,1586970373,46.96,46.96,46.96,70,53,5.59
554,Baruun-Urt,MN,46.68,113.28,1586970357,35.6,35.6,35.6,42,19,3.62
555,Soubre,CI,5.79,-6.61,1586970949,81.63,81.63,81.63,78,84,3.94
556,Boissevain,CA,49.23,-100.06,1586970949,30.81,33.01,28.4,46,90,9.17
557,Oodweyne,SO,9.41,45.06,1586970949,81.45,81.45,81.45,38,66,11.12
558,Noumea,NC,-22.28,166.46,1586970950,68.0,68.0,68.0,88,20,3.36
559,Skowhegan,US,44.77,-69.72,1586970950,45.01,48.0,42.01,39,90,6.93
560,Catuday,PH,16.29,119.81,1586970950,78.12,78.12,78.12,80,32,6.87
